[{"#":null,"Name":"Ellicot Therapy LLC","FIled by":"Anandita","Type":"Mental health","County":"Ashe","Coordinates":"36.1514798, -80.2771682","Address":"7830 North Point Blvd #201, Winston-Salem, NC 27106","Email Address":null,"Phone Number":"(336) 896-0904","Hours":"Monday-Friday: 9am-5pm","Link":"http:\/\/www.triadtherapy.com\/","Unnamed: 11":null,"positions":[36.1514798,-80.2771682]},{"#":null,"Name":"Hope Universal ","FIled by":"Anandita","Type":"Food Bank ","County":"Ashe","Coordinates":"35.9400335, -81.48321199999998","Address":"839 Wilkesboro Blvd., Lenoir, NC 28645","Email Address":null,"Phone Number":"(828) 759-2228","Hours":null,"Link":"http:\/\/www.umhs.net\/","Unnamed: 11":null,"positions":[35.9400335,-81.483212]},{"#":null,"Name":"New Directions Treatment Center","FIled by":"Anandita","Type":"Mental health","County":"Ashe","Coordinates":"36.0819348, -80.2937283","Address":"2990 Bethesda Place Suite 602-B, Winston Salem, NC 27103","Email Address":null,"Phone Number":"(336)768-8281","Hours":"M-F 8am-5pm","Link":"http:\/\/www.newdirectionsnow.com\/","Unnamed: 11":null,"positions":[36.0819348,-80.2937283]},{"#":null,"Name":"Blue Ridge Regional Hospital","FIled by":"Anandita","Type":"Medical","County":"Ashe","Coordinates":"35.911169, -82.062670","Address":"125 Hospital Drive, Spruce Pine, NC 28777","Email Address":null,"Phone Number":"(877) 777-8230","Hours":"24 Hour","Link":"www.blueridgehospital.org","Unnamed: 11":null,"positions":[35.911169,-82.06267]},{"#":null,"Name":"Western Highlands Network","FIled by":"Anandita","Type":"Mental Health","County":"Ashe","Coordinates":"35.915800, -82.069306","Address":"205 Locust Avenue\/ Spruce Pine, NC 28777","Email Address":null,"Phone Number":"(828)765-9380","Hours":"Monday-Friday 8AM-5PM","Link":null,"Unnamed: 11":null,"positions":[35.9158,-82.069306]},{"#":null,"Name":"W.A.M.Y. Community Action, Inc.","FIled by":"Anandita","Type":"Food, Health, Shelter","County":"Ashe","Coordinates":"35.915931, -82.069155","Address":"29 Crystal Street\/ Spruce Pine, NC 28777","Email Address":null,"Phone Number":"(828)766-9150","Hours":"Monday-Friday 8AM-5PM","Link":"www.wamycommunityaction.org","Unnamed: 11":null,"positions":[35.915931,-82.069155]},{"#":null,"Name":"Coastal Women's Center","FIled by":"Anandita","Type":"Domestic Violence: Women","County":"Bertie","Coordinates":"35.5586591,-79.1436103","Address":"1333 S. Glenburnie Road New Bern, NC 28562","Email Address":"cwsfundd@coastalwomensshelter.net","Phone Number":"(252) 448-9971","Hours":"Monday - Friday 8:00 AM - 5:00 PM","Link":"http:\/\/www.coastalwomensshelter.org\/","Unnamed: 11":null,"positions":[35.5586591,-79.1436103]},{"#":null,"Name":"Carolina East Health System","FIled by":"Anandita","Type":"Medical, Mental Health","County":"Bertie","Coordinates":"35.5545665,-79.1304063","Address":"2000 Neuse Blvd, New Bern, NC 28561","Email Address":"nfo@carolinaeasthealth.com","Phone Number":"(252) 633-8111","Hours":"24\/7","Link":"https:\/\/www.carolinaeasthealth.com\/","Unnamed: 11":null,"positions":[35.5545665,-79.1304063]},{"#":null,"Name":"Food Bank CENC ","FIled by":"Anandita","Type":"Food Bank","County":"Bertie","Coordinates":"35.5586591,-79.135738","Address":"205 S Glenburnie Rd, New Bern, NC 28560","Email Address":"info@foodbankcenc.org","Phone Number":"(252) 577-1912","Hours":"Tuesday - Thursday 9 AM - 3 PM","Link":"foodbankcenc.org","Unnamed: 11":null,"positions":[35.5586591,-79.135738]},{"#":null,"Name":"United Way","FIled by":"Anandita","Type":"Food, shelter","County":"Bladen","Coordinates":"36.3229253,-78.410647","Address":"715 S Garnett St PO BOX 1352 Henderson, NC 27536","Email Address":"unitedwayofvance@gmail.com","Phone Number":"(252) 492-8392","Hours":null,"Link":"http:\/\/unitedwayvance.org\/events","Unnamed: 11":null,"positions":[36.3229253,-78.410647]},{"#":2.0,"Name":"Family Services Shelter\/Crisis","FIled by":"Jessica","Type":"Shelter","County":"Forsyth","Coordinates":"36.0804968,-80.2469184","Address":"1200 S. Broad Street, Winston-Salem, NC 27101","Email Address":"info@familyservicesforsyth.org","Phone Number":" 336.722.8173","Hours":"Mon, Tues, Wed 8:30am - 5:30pm, Thur 8:30am - 7pm; Fri 8:30am - 1pm","Link":"https:\/\/familyservicesforsyth.org\/","Unnamed: 11":null,"positions":[36.0804968,-80.2469184]},{"#":3.0,"Name":"Bethesda Center for the Homeless","FIled by":"Jessica","Type":"Shelter","County":"Forsyth","Coordinates":"36.106213, -80.242032","Address":"930 N. Patterson Ave. , Winston Salem, NC 27101","Email Address":null,"Phone Number":"(336) 722-9951","Hours":"Monday \u2013 Friday, 9:00 am to 5:00 pm","Link":"http:\/\/www.bethesdacenter.org\/","Unnamed: 11":null,"positions":[36.106213,-80.242032]},{"#":4.0,"Name":"Shugart Women\u2019s Center","FIled by":"Jessica","Type":"Shelter, women's center","County":"Forsyth","Coordinates":"36.0694251, -80.27273279999997","Address":"2100 Silas Creek Parkway, Winston-Salem, NC 27103-5197","Email Address":"wc@forsythtech.edu","Phone Number":"336.734.7280","Hours":"Monday\u2014Thursday 8 am \u2013 5 pm, Friday 8 am \u2013 3 pm","Link":"https:\/\/www.forsythtech.edu\/student-services\/student-resources\/womens-center\/","Unnamed: 11":null,"positions":[36.0694251,-80.2727328]},{"#":5.0,"Name":"The Salvation Army Center of Hope","FIled by":"Jessica","Type":"Shelter","County":"Forsyth","Coordinates":"36.1098929, -80.24576830000001","Address":"1255 North Trade Street, Winston-Salem, NC 27101","Email Address":null,"Phone Number":"336 777 8721","Hours":null,"Link":"https:\/\/www.salvationarmycarolinas.org\/winston-salem\/","Unnamed: 11":null,"positions":[36.1098929,-80.2457683]},{"#":6.0,"Name":"Second Harvest Food Bank of Northwest North Carolina","FIled by":"Jessica","Type":"Food bank","County":"Forsyth","Coordinates":"36.0534629, -80.21104209999999","Address":"3655 Reed Street I Winston-Salem, NC 27107","Email Address":null,"Phone Number":"336.784.5770","Hours":null,"Link":"https:\/\/www.hungernwnc.org\/","Unnamed: 11":null,"positions":[36.0534629,-80.2110421]},{"#":7.0,"Name":"Clemmons Food Pantry","FIled by":"Jessica","Type":"Food bank","County":"Forsyth","Coordinates":"36.0267051, -80.3848807","Address":"2585 Old Glory Road, Suite 109, Clemmons, NC  27012","Email Address":"info@clemmonsfoodpantry.org","Phone Number":"336-331-3432","Hours":"Tuesday 4:00 PM-6:00 PM, Thursday 3:30 PM - 5:00 PM & 6:00 PM to 7:30 PM, Saturday 9:00 AM - 11:00 AM","Link":"http:\/\/clemmonsfoodpantry.org\/","Unnamed: 11":null,"positions":[36.0267051,-80.3848807]},{"#":8.0,"Name":"Agape Care & Share Ministries","FIled by":"Jessica","Type":"Food bank","County":"Forsyth","Coordinates":"36.1400718, -80.24411350000003","Address":"3650-G North Patterson Ave. Winston Salem, NC 27105","Email Address":null,"Phone Number":"(336) 744-4004","Hours":null,"Link":"https:\/\/triaddreamcenter.com\/","Unnamed: 11":null,"positions":[36.1400718,-80.2441135]},{"#":9.0,"Name":"Winston Salem Friends Meeting","FIled by":"Jessica","Type":"Food bank","County":"Forsyth","Coordinates":"36.1490162, -80.3068695","Address":"3151 Reynolda Road,, Winston-Salem, NC  27106","Email Address":"wsfm@bellsouth.net","Phone Number":" (336) 725-8801","Hours":null,"Link":"http:\/\/www.w-sfriendsmeeting.net\/","Unnamed: 11":null,"positions":[36.1490162,-80.3068695]},{"#":10.0,"Name":"Community Care Center","FIled by":"Jessica","Type":"Medical","County":"Forsyth","Coordinates":"36.1057268, -80.21836580000002","Address":"2135 New Walkertown Road, Winston-Salem, NC 27101","Email Address":null,"Phone Number":"(336) 723-7904","Hours":"Mondays & Thursdays: 9:00 a.m. - 9:00 p.m., Tuesdays & Wednesdays:\u00a09:00 a.m. - 5:00\u00a0p.m.","Link":"https:\/\/cccforsyth.org\/","Unnamed: 11":null,"positions":[36.1057268,-80.2183658]},{"#":11.0,"Name":"Health and Wellness Clinic of the Triad Region, Inc.","FIled by":"Jessica","Type":"Medical","County":"Forsyth","Coordinates":"36.1940152, -80.25415850000002","Address":"600 Old Hollow Road, Winston Salem, NC, 27105","Email Address":null,"Phone Number":"336-718-0785","Hours":null,"Link":"https:\/\/northcarolinadb.com\/company\/1242489\/health-and-wellness-clinic-of-the-triad-region-inc","Unnamed: 11":null,"positions":[36.1940152,-80.2541585]},{"#":12.0,"Name":"United Health Centers (UHC) based in Winston-Salem, NC.","FIled by":"Jessica","Type":"Medical","County":"Forsyth","Coordinates":"36.078771, -80.18083999999999","Address":"3009 Waughtown Street, Winston-Salem, NC 27107","Email Address":null,"Phone Number":"336-293-8728","Hours":"8:00 am \u2013 5:00 pm, M-F","Link":"http:\/\/www.uhcenters.org\/locations\/","Unnamed: 11":null,"positions":[36.078771,-80.18084]},{"#":13.0,"Name":"Bowman Gray Child Guidance Clinic","FIled by":"Jessica","Type":"Medical, children's health","County":"Forsyth","Coordinates":"36.06720819999999, -80.3397119","Address":"791 Jonestown Road, Winston Salem, NC27103","Email Address":null,"Phone Number":"(336) 716-5531","Hours":null,"Link":"https:\/\/ncconnects.onconcursive.com\/show\/bowman-gray-child-guidance-center-winston-salem-nc","Unnamed: 11":null,"positions":[36.0672082,-80.3397119]},{"#":14.0,"Name":"Winston-Salem Health Care (Convenience Care Clinic)","FIled by":"Jessica","Type":"Medical","County":"Forsyth","Coordinates":"36.0812766, -80.30276219999996","Address":"250 Charlois Blvd, Winston-Salem, NC 27103","Email Address":null,"Phone Number":"336-718-1000","Hours":"Monday to Friday: 8 a.m. to 6 p.m., Saturday: 8 a.m. to 1 p.m., Sunday: Noon to 5 p.m.","Link":"https:\/\/www.nhwshealthcare.org\/our-services\/convenient-care-clinic.aspx","Unnamed: 11":null,"positions":[36.0812766,-80.3027622]},{"#":15.0,"Name":"Novant Health Today's Woman OB\/GYN","FIled by":"Jessica","Type":"Medical, women's health","County":"Forsyth","Coordinates":"36.1181274, -80.25343429999998","Address":"2001 Todays Woman Ave NW, Winston-Salem, NC 27105","Email Address":null,"Phone Number":"336-722-1818","Hours":"Monday to Thursday: 8 a.m. to noon, 1 p.m. to 5 p.m.","Link":"https:\/\/www.nhtodayswomanobgyn.org\/?utm_source=maps.google.com&utm_medium=organic&utm_campaign=GMB&utm_content=MG-391","Unnamed: 11":null,"positions":[36.1181274,-80.2534343]},{"#":16.0,"Name":"Novant Health Gateway Family Medicine","FIled by":"Jessica","Type":"Medical","County":"Forsyth","Coordinates":"36.0813301, -80.2429239","Address":"390 Salem Avenue, Winston-Salem, NC 27101","Email Address":null,"Phone Number":"336-721-2375","Hours":null,"Link":"https:\/\/www.nhgatewayfamilymedicine.org\/?utm_source=maps.google.com&utm_medium=organic&utm_campaign=GMB&utm_content=MG-109","Unnamed: 11":null,"positions":[36.0813301,-80.2429239]},{"#":17.0,"Name":"Planned Parenthood - Winston-Salem Health Center","FIled by":"Jessica","Type":"Medical","County":"Forsyth","Coordinates":"36.0798489, -80.29309280000001","Address":"3000 Maplewood Ave, Ste. 112, Winston-Salem, NC 27103","Email Address":null,"Phone Number":"336-768-2980","Hours":"Mon, Wed: 9:00 a.m. \u2013 5:00 p.m., Tues: 10:00 a.m. \u2013 6:00 p.m., Thurs: 11:00 a.m. \u2013 7:00 p.m., Fri: 7:00 a.m. \u2013 1:00 p.m.","Link":"https:\/\/www.plannedparenthood.org\/health-center\/north-carolina\/winston-salem\/27103\/winston-salem-health-center-2845-90860?utm_campaign=winston-salem-health-center&utm_medium=organic&utm_source=local-listing","Unnamed: 11":null,"positions":[36.0798489,-80.2930928]},{"#":19.0,"Name":"Novant Health Express Care - Downtown Winston-Salem","FIled by":"Jessica","Type":"Medical","County":"Forsyth","Coordinates":"36.0981774, -80.24436550000001","Address":"50 West Fourth Street, Suite 10, Winston-Salem, NC 27101","Email Address":null,"Phone Number":"336-718-4705","Hours":"Monday to Friday: 7:30 a.m. to 7:30 p.m., Saturday: 8 a.m. to 6 p.m., Sunday: 8 a.m. to 4 p.m.","Link":"https:\/\/www.novanthealth.org\/clinic-locations\/novant-health-express-care---downtown-winston-salem.aspx?utm_source=maps.google.com&utm_medium=organic&utm_campaign=GMB&utm_content=MG-083","Unnamed: 11":null,"positions":[36.0981774,-80.2443655]},{"#":20.0,"Name":"North Star LGBTQ Community Center","FIled by":"Jessica","Type":"LGBTQ","County":"Forsyth","Coordinates":"36.0960491, -80.25691669999998","Address":"930 Burke Street, Winston-Salem, NC 27101","Email Address":"info@northstarlgbtcc.com","Phone Number":"336-893-9053","Hours":"Monday: Closed, Tuesday-Friday: 5:00-7:00pm, Saturday-Sunday: 1:00-5:00pm","Link":"http:\/\/www.northstarlgbtcc.com\/","Unnamed: 11":null,"positions":[36.0960491,-80.2569167]},{"#":21.0,"Name":"LGBT Law of Winston-Salem","FIled by":"Jessica","Type":"LGBTQ","County":"Forsyth","Coordinates":"36.0821921, -80.30148880000002","Address":"D, 250 Executive Park Blvd #100, Winston-Salem, NC  27103","Email Address":null,"Phone Number":"336-673-3339","Hours":null,"Link":"https:\/\/lgbtlawyerswinstonsalem.com\/","Unnamed: 11":null,"positions":[36.0821921,-80.3014888]},{"#":22.0,"Name":"Old Vineyard Behavioral Health Services","FIled by":"Jessica","Type":"Mental health","County":"Forsyth","Coordinates":"36.07858499999999, -80.31918150000001","Address":"3637 Old Vineyard Road, Winston-Salem, NC, 27104","Email Address":null,"Phone Number":"855-234-5920","Hours":null,"Link":"https:\/\/oldvineyardbhs.com\/","Unnamed: 11":null,"positions":[36.078585,-80.3191815]},{"#":23.0,"Name":"Mental Health Association In Forsyth County","FIled by":"Jessica","Type":"Mental health","County":"Forsyth","Coordinates":"36.0776094, -80.28661679999999","Address":"1509 South Hawthorne Road | Winston Salem, NC 27103","Email Address":"andy@triadmentalhealth.org","Phone Number":"(336)768-3880","Hours":"Monday-Thursday\u20139:00 am- 5:00 pm, Friday-9:00 am- 1:00 pm","Link":"https:\/\/www.triadmentalhealth.org\/","Unnamed: 11":null,"positions":[36.0776094,-80.2866168]},{"#":24.0,"Name":"Monarch","FIled by":"Jessica","Type":"Mental health","County":"Forsyth","Coordinates":"36.1453965, -80.26490339999998","Address":"4140 N. Cherry Street NW, Winston-Salem, NC 27105","Email Address":null,"Phone Number":"(336) 306-9620","Hours":"Monday \u2013 Friday 8 a.m.-5 p.m.","Link":"https:\/\/www.monarchnc.org\/what-we-do\/mental-health-services\/service-locations?countyID=40","Unnamed: 11":null,"positions":[36.1453965,-80.2649034]},{"#":26.0,"Name":"Triad Therapy LLC","FIled by":"Jessica","Type":"Mental health","County":"Forsyth","Coordinates":"36.1514798, -80.2771682","Address":"7830 North Point Blvd #201, Winston-Salem, NC 27106","Email Address":null,"Phone Number":"(336) 896-0904","Hours":"Monday-Friday: 9am-5pm","Link":"http:\/\/www.triadtherapy.com\/","Unnamed: 11":null,"positions":[36.1514798,-80.2771682]},{"#":27.0,"Name":"Universal MH\/DD\/SAS","FIled by":"Jessica","Type":"Mental health","County":"Forsyth","Coordinates":"35.9400335, -81.48321199999998","Address":"839 Wilkesboro Blvd., Lenoir, NC 28645","Email Address":null,"Phone Number":"(828) 759-2228","Hours":null,"Link":"http:\/\/www.umhs.net\/","Unnamed: 11":null,"positions":[35.9400335,-81.483212]},{"#":28.0,"Name":"New Directions Treatment Center","FIled by":"Jessica","Type":"Mental health","County":"Forsyth","Coordinates":"36.0819348, -80.2937283","Address":"2990 Bethesda Place   Suite 602-B, Winston Salem, NC   27103","Email Address":null,"Phone Number":"(336)768-8281                     ","Hours":"M-F 8am-5pm","Link":"http:\/\/www.newdirectionsnow.com\/","Unnamed: 11":null,"positions":[36.0819348,-80.2937283]},{"#":29.0,"Name":"Safe Space","FIled by":"Jessica","Type":"Shelter, food pantry","County":"Franklin","Coordinates":"36.09884040000001, -78.3015767","Address":"113 S Main St #107, Louisburg, NC NC 27549, United States","Email Address":"bthomas@ncsafespace.org","Phone Number":"919.497.5444","Hours":null,"Link":"http:\/\/ncsafespace.org\/","Unnamed: 11":null,"positions":[36.0988404,-78.3015767]},{"#":30.0,"Name":"Franklin County Health Department","FIled by":"Jessica","Type":"Medical","County":"Franklin","Coordinates":"36.1043816, -78.28951310000002","Address":"107 Industrial Drive, Suite C, Louisburg, NC 27549","Email Address":null,"Phone Number":"(919) 496-2533","Hours":"Monday-Friday, 8:00 AM - 5:00 PM","Link":"http:\/\/www.franklincountync.us\/","Unnamed: 11":null,"positions":[36.1043816,-78.2895131]},{"#":31.0,"Name":"Franklin Community Health Services - Louisburg Low Cost Clinic ","FIled by":"Jessica","Type":"Medical","County":"Franklin","Coordinates":"36.0989982, -78.30317780000001","Address":"111 S Church St, Louisburg NC, 27549-2501","Email Address":null,"Phone Number":"919-340-2500","Hours":null,"Link":null,"Unnamed: 11":null,"positions":[36.0989982,-78.3031778]},{"#":32.0,"Name":"Franklin County VIM Clinic - Louisburg Low Cost Clinic","FIled by":"Jessica","Type":"Medical","County":"Franklin","Coordinates":"36.09907810000001, -78.30092259999998","Address":"100 W Nash St, Louisburg, NC 27549","Email Address":null,"Phone Number":"(919) 496-0492","Hours":null,"Link":null,"Unnamed: 11":null,"positions":[36.0990781,-78.3009226]},{"#":33.0,"Name":"Advance Community Health","FIled by":"Jessica","Type":"Medical","County":"Franklin","Coordinates":"36.0989982, -78.30317780000001","Address":"111 S Church St, Franklinton, NC 27525","Email Address":null,"Phone Number":"919-833-3111","Hours":"Monday-Friday, 8:00am-5:30pm","Link":"https:\/\/www.advancechc.org\/locations\/franklin\/","Unnamed: 11":null,"positions":[36.0989982,-78.3031778]},{"#":34.0,"Name":"Impact Healthcare","FIled by":"Jessica","Type":"Medical","County":"Franklin","Coordinates":"36.0894633, -78.29918579999998","Address":"315 Franklin Plaza, Louisburg, NC 27549","Email Address":null,"Phone Number":"919-496-4976\n","Hours":"Mon \u2013 Fri, 8 am \u2013 5 pm, and Sat 8 am \u2013 12pm","Link":"http:\/\/impacthealthcarenc.com\/","Unnamed: 11":null,"positions":[36.0894633,-78.2991858]},{"#":35.0,"Name":"Keys to Recovery Counseling Services, PLLC","FIled by":"Jessica","Type":"Mental health","County":"Franklin","Coordinates":"36.09852840000001, -78.3011611","Address":"202 South Main Street, Louisburg, NC 27549","Email Address":null,"Phone Number":"919-435-8164","Hours":"Mon-Thus 9a-6p","Link":"http:\/\/www.keystorecoverycs.com\/","Unnamed: 11":null,"positions":[36.0985284,-78.3011611]},{"#":36.0,"Name":"Gaston Family Health Services","FIled by":"Jessica","Type":"Medical, Mental health","County":"Gaston","Coordinates":"35.2588427, -81.18056330000002","Address":"111 E. 3rd Ave, Gastonia, NC 28052\n","Email Address":null,"Phone Number":"704-874-3300","Hours":"Monday 8:00am - 8:00pm,Tuesday - Friday 8:00am - 5:00pm","Link":"http:\/\/gfhs.info\/gaston-family-medical-center\/","Unnamed: 11":null,"positions":[35.2588427,-81.1805633]},{"#":37.0,"Name":"CaroMont Regional Medical Center","FIled by":"Jessica","Type":"Medical, women's health, pediatrics","County":"Gaston","Coordinates":"35.2717527, -81.13903619999996","Address":"2525 Court Drive,Gastonia,NC,28054","Email Address":null,"Phone Number":"704.834.2104","Hours":null,"Link":"https:\/\/www.caromonthealth.org\/","Unnamed: 11":null,"positions":[35.2717527,-81.1390362]},{"#":38.0,"Name":"Gaston Women's Healthcare","FIled by":"Jessica","Type":"Medical","County":"Gaston","Coordinates":"35.2737066, -81.14389840000001","Address":"620 Summit Crossing Place, Suite 108, Gastonia, NC 28054\n","Email Address":null,"Phone Number":"704.865.2229","Hours":null,"Link":"https:\/\/www.caromonthealth.org\/","Unnamed: 11":null,"positions":[35.2737066,-81.1438984]},{"#":39.0,"Name":"Belaire Health Care Center","FIled by":"Jessica","Type":null,"County":"Gaston","Coordinates":"35.2337806, -81.20587929999999","Address":"2065 Lyon StreetGastonia, NC 28052","Email Address":" ","Phone Number":"(704) 867-7300","Hours":null,"Link":"https:\/\/www.mfa.net\/center\/belaire-health-care-center","Unnamed: 11":null,"positions":[35.2337806,-81.2058793]},{"#":40.0,"Name":"New Hope Medical Clinic","FIled by":"Jessica","Type":"Medical (primary care)","County":"Gaston","Coordinates":"35.2218455, -81.10120380000001","Address":"3670 South New Hope Road, Suite 1, Gastonia, NC 28056","Email Address":null,"Phone Number":"704-709-3239","Hours":"Monday-Thursday 8:30 am- 5:30 pm, Friday 8:30 am - 2:30 pm","Link":"https:\/\/www.newhopeclinic.net\/","Unnamed: 11":null,"positions":[35.2218455,-81.1012038]},{"#":41.0,"Name":"Healing and Hope Counseling Center","FIled by":"Jessica","Type":"Mental health","County":"Gaston","Coordinates":"35.258214, -81.186644","Address":"419 South York Street, Gastonia, NC 28052","Email Address":null,"Phone Number":"704-865-8722","Hours":"Mon -\u00a0Fri 8am - 7pm","Link":"http:\/\/www.healingandhopecounselingcenter.com\/home.html","Unnamed: 11":null,"positions":[35.258214,-81.186644]},{"#":42.0,"Name":"Sunpath, LLC","FIled by":"Jessica","Type":"Mental health","County":"Gaston","Coordinates":"35.2634929, -81.188197","Address":"415 W. Main Avenue, Gastonia, NC 28052 ","Email Address":null,"Phone Number":"704-478-6093","Hours":"Monday - Friday, 9a.m. to 5p.m.","Link":"http:\/\/www.sunpathllc.com\/index.html","Unnamed: 11":null,"positions":[35.2634929,-81.188197]},{"#":43.0,"Name":"Support Inc. - Day Treatment, Outpatient\/Intake Eval Dept","FIled by":"Jessica","Type":"Mental health","County":"Gaston","Coordinates":"35.2540009, -81.169668","Address":"708 S. Chestnut St. Gastonia, NC 28054","Email Address":null,"Phone Number":"704-864-6444","Hours":null,"Link":"http:\/\/supportinc.org\/","Unnamed: 11":null,"positions":[35.2540009,-81.169668]},{"#":44.0,"Name":"Support Inc. - Dallas Office","FIled by":"Jessica","Type":"Mental health","County":"Gaston","Coordinates":"35.3154378, -81.16652399999998","Address":"107 N. Summey St. Dallas, NC 28034","Email Address":null,"Phone Number":"704-271-1285","Hours":null,"Link":"http:\/\/supportinc.org\/","Unnamed: 11":null,"positions":[35.3154378,-81.166524]},{"#":45.0,"Name":"Patterson Psych Group, PLLC","FIled by":"Jessica","Type":"Mental health","County":"Gaston","Coordinates":"35.24332649999999, -81.16936140000001","Address":"1554-C Union Road Gastonia, NC 28054","Email Address":null,"Phone Number":"704-869-2047","Hours":"Monday-Thursday: 9:30 am - 7:30 pm, Friday: 9:30 am - 3:30 pm","Link":"http:\/\/www.pattersonpsych.com\/","Unnamed: 11":null,"positions":[35.2433265,-81.1693614]},{"#":46.0,"Name":"Bread Inc","FIled by":"Jessica","Type":"Food pantry","County":"Gaston","Coordinates":"35.261826, -81.18311790000001","Address":"161B W Franklin Blvd, Gastonia, NC 28052","Email Address":null,"Phone Number":"(704) 854-9221","Hours":"Tuesday    9 AM - 12 PM, Thursday 9 AM - 12 PM","Link":"http:\/\/www.breadfoodbank.com\/","Unnamed: 11":null,"positions":[35.261826,-81.1831179]},{"#":47.0,"Name":"United Way of Gaston County","FIled by":"Jessica","Type":"Food pantry, shelter, LGBTQ","County":"Gaston","Coordinates":"35.2625386, -81.17987440000002","Address":"200 E Franklin Blvd, Gastonia, NC 28052","Email Address":null,"Phone Number":"(704) 864-4554","Hours":null,"Link":"http:\/\/unitedwaygaston.org\/","Unnamed: 11":null,"positions":[35.2625386,-81.1798744]},{"#":48.0,"Name":"Salvation Army","FIled by":"Jessica","Type":"Food pantry, shelter","County":"Gaston","Coordinates":"35.2635115, -81.1786256000000","Address":"107 S Broad St, Gastonia, NC 28052","Email Address":null,"Phone Number":"(704) 867-6145","Hours":null,"Link":"https:\/\/www.salvationarmycarolinas.org\/goldsboro\/","Unnamed: 11":null,"positions":[35.2635115,-81.1786256]},{"#":49.0,"Name":"Crisis Assistance Ministry","FIled by":"Jessica","Type":"Food pantry","County":"Gaston","Coordinates":"35.26525429999999, -81.19441510000001","Address":"805 W Airline Ave, Gastonia, NC 28052","Email Address":null,"Phone Number":"(704) 867-8901","Hours":null,"Link":"http:\/\/crisisassistancegastonia.org\/","Unnamed: 11":null,"positions":[35.2652543,-81.1944151]},{"#":50.0,"Name":"Mt Zion Restoration Church","FIled by":"Jessica","Type":"Food pantry","County":"Gaston","Coordinates":"35.267054, -81.22354789999997","Address":"2311 Crescent Ln, Gastonia, NC 28052","Email Address":null,"Phone Number":"(704) 864-8616","Hours":null,"Link":"http:\/\/www.mtzionrestoration.com\/","Unnamed: 11":null,"positions":[35.267054,-81.2235479]},{"#":51.0,"Name":"Community Relief Organization","FIled by":"Jessica","Type":"Food pantry","County":"Gaston","Coordinates":"35.28768100000001, -81.0180742","Address":"2120 Spring St, Mt Holly, NC 28120","Email Address":null,"Phone Number":"(704) 827-0450","Hours":null,"Link":"http:\/\/www.cro-mtholly.org\/","Unnamed: 11":null,"positions":[35.287681,-81.0180742]},{"#":52.0,"Name":"Family Promise of Gaston County","FIled by":"Jessica","Type":"Shelter","County":"Gaston","Coordinates":"35.25894279999999, -81.1810585","Address":"109 E 3rd Ave, Gastonia, NC 28052","Email Address":null,"Phone Number":"(704) 854-9880","Hours":null,"Link":"http:\/\/www.gastonfamilypromise.org\/","Unnamed: 11":null,"positions":[35.2589428,-81.1810585]},{"#":53.0,"Name":"Gates County Medical Center","FIled by":"Jessica","Type":"Medical","County":"Gates","Coordinates":"36.4088438, -76.75333230000001","Address":"501 Main St, Gatesville, NC 27938","Email Address":null,"Phone Number":"(252) 357-1226","Hours":null,"Link":null,"Unnamed: 11":null,"positions":[36.4088438,-76.7533323]},{"#":54.0,"Name":"Gates County Health Department","FIled by":"Jessica","Type":"Medical","County":"Gates","Coordinates":"36.452519, -76.700582","Address":"29 Medical Center Rd, Gates, NC 27937","Email Address":null,"Phone Number":"(252) 357-1380","Hours":"Monday-Friday: 8am-5pm","Link":"https:\/\/gettested.cdc.gov\/organizations\/albemarle-regional-health-services-1","Unnamed: 11":null,"positions":[36.452519,-76.700582]},{"#":55.0,"Name":"Snowbird Health Clinic","FIled by":"Jessica","Type":"Primary care, mental health","County":"Graham","Coordinates":"35.30387569999999, -83.87379490000001","Address":"96 Indian School Rd, Robbinsville, NC 28771","Email Address":null,"Phone Number":"(828) 479-3924","Hours":"Monday, Wednesday and Thursday 8:00-4:30, Tuesday 8:00-6:00 and Friday 8:00-3:00","Link":"http:\/\/cherokeehospital.org\/page?title=Snowbird-Health-Clinic","Unnamed: 11":null,"positions":[35.3038757,-83.8737949]},{"#":56.0,"Name":"Appalachian Community Services","FIled by":"Jessica","Type":"Mental health","County":"Graham","Coordinates":"35.319609, -83.80613699999998","Address":"217 S Main St, Robbinsville, NC 28771","Email Address":null,"Phone Number":"(828) 479-6466","Hours":"24\/7","Link":"https:\/\/www.acswnc.com\/","Unnamed: 11":null,"positions":[35.319609,-83.806137]},{"#":57.0,"Name":"Tallulah Community Health Center","FIled by":"Jessica","Type":"Medical","County":"Graham","Coordinates":"35.31575640000001, -83.79968610000003","Address":"409 Tallulah Rd, Robbinsville, NC 28771","Email Address":null,"Phone Number":"(828) 479-6434","Hours":"Monday-Friday 8am-5pm","Link":null,"Unnamed: 11":null,"positions":[35.3157564,-83.7996861]},{"#":58.0,"Name":"Graham County Social Services","FIled by":"Jessica","Type":"Social services, shelter","County":"Graham","Coordinates":"35.3282331, -83.80980069999998","Address":"196 Knight St, Robbinsville, NC 28771","Email Address":null,"Phone Number":"(828) 479-7911","Hours":null,"Link":null,"Unnamed: 11":null,"positions":[35.3282331,-83.8098007]},{"#":59.0,"Name":"Graham County Family Resource","FIled by":"Jessica","Type":"Mental health, counseling","County":"Graham","Coordinates":"35.325679, -83.810046","Address":"76 Moose Branch Rd, Robbinsville, NC 28771","Email Address":null,"Phone Number":"(828) 479-2348","Hours":null,"Link":null,"Unnamed: 11":null,"positions":[35.325679,-83.810046]},{"#":60.0,"Name":"Smoky Mountain Urgent Care","FIled by":"Jessica","Type":"Medical","County":"Graham","Coordinates":"35.3221527, -83.806153","Address":"21 S Main St, Robbinsville, NC 28771","Email Address":null,"Phone Number":"(828) 479-7682","Hours":"9am-7pm","Link":"https:\/\/www.smokymountainurgentcares.com\/","Unnamed: 11":null,"positions":[35.3221527,-83.806153]},{"#":61.0,"Name":"Granville-Vance Public Health","FIled by":"Jessica","Type":"Medical","County":"Granville","Coordinates":"36.308531, -78.58840120000002","Address":"101 Hunt Dr, Oxford, NC 27565","Email Address":null,"Phone Number":"(919) 693-2141","Hours":"Monday-Friday 8:30am-5:00pm","Link":"http:\/\/www.gvdhd.org\/","Unnamed: 11":null,"positions":[36.308531,-78.5884012]},{"#":62.0,"Name":"Granville Health System","FIled by":"Jessica","Type":"Medical, mental health","County":"Granville","Coordinates":"36.4476109, -78.56828250000001","Address":"100 Durham St, Stovall, NC 27582","Email Address":null,"Phone Number":"(919) 690-8880","Hours":null,"Link":"http:\/\/ghshospital.org\/","Unnamed: 11":null,"positions":[36.4476109,-78.5682825]},{"#":63.0,"Name":"Center For Women's Health","FIled by":"Jessica","Type":"Medical, women's health","County":"Granville","Coordinates":"36.3250323, -78.59326010000001","Address":"101-B Professional Park Dr, Oxford, NC 27565","Email Address":null,"Phone Number":"(919) 241-8463","Hours":"Monday-Thursday: 8am-5pm, Friday: 8am-1pm","Link":"https:\/\/www.centerforwomenshealthoxfordnc.com\/?utm_source=gmb_auth","Unnamed: 11":null,"positions":[36.3250323,-78.5932601]},{"#":64.0,"Name":"Premier Women's Health","FIled by":"Jessica","Type":"Medical, women's health","County":"Granville","Coordinates":"36.3120686, -78.55357479999998","Address":"1209 SE Industry Dr, Oxford, NC 27565","Email Address":null,"Phone Number":"(252) 492-8576","Hours":"Monday-Thursday: 8am-5pm, Friday: 8am-12pm","Link":"https:\/\/www.mariaparham.com\/","Unnamed: 11":null,"positions":[36.3120686,-78.5535748]},{"#":65.0,"Name":"Innovative Behavioral Health Services PC","FIled by":"Jessica","Type":"Mental health","County":"Granville","Coordinates":"36.1195322, -78.68635169999999","Address":"402 N Main St, Creedmoor, NC 27522","Email Address":null,"Phone Number":"(919) 529-2474","Hours":null,"Link":null,"Unnamed: 11":null,"positions":[36.1195322,-78.6863517]},{"#":66.0,"Name":"Greene County Health Care Inc","FIled by":"Jessica","Type":"Medical","County":"Greene","Coordinates":"35.453299, -77.68091400000003","Address":"7 Professional Dr, Snow Hill, NC 28580","Email Address":null,"Phone Number":"(252) 747-8162","Hours":"Monday-Friday 8am-5pm","Link":"http:\/\/www.greenecountyhealthcare.com\/","Unnamed: 11":null,"positions":[35.453299,-77.680914]},{"#":67.0,"Name":"Walstonburg Medical Center","FIled by":"Jessica","Type":"Medical","County":"Greene","Coordinates":"35.591957, -77.69773500000002","Address":"204 S Main St, Walstonburg, NC 27888","Email Address":null,"Phone Number":"(252) 753-3771","Hours":null,"Link":null,"Unnamed: 11":null,"positions":[35.591957,-77.697735]},{"#":68.0,"Name":"Ambleside\/Amblecare","FIled by":"Jessica","Type":"Mental health","County":"Greene","Coordinates":"35.455632, -77.68273699999997","Address":"1 Industrial Dr, Snow Hill, NC 28580","Email Address":null,"Phone Number":"(252) 747-5252","Hours":"Monday-Friday 8am-5pm","Link":"http:\/\/ambleside.net\/","Unnamed: 11":null,"positions":[35.455632,-77.682737]},{"#":69.0,"Name":"Greene County Social Services Department","FIled by":"Jessica","Type":"Shelter, social services","County":"Greene","Coordinates":"35.452512, -77.68394390000003","Address":"227 Kingold Blvd, Snow Hill, NC 28580","Email Address":null,"Phone Number":"(252) 747-5932","Hours":"Monday-Friday 8am-5pm","Link":"http:\/\/www.greenecountync.gov\/","Unnamed: 11":null,"positions":[35.452512,-77.6839439]},{"#":null,"Name":"Mustard Seed Community Health","FIled by":"Jessica","Type":"Medical","County":"Guilford","Coordinates":"36.0720229, -79.757927","Address":"238 S English St, Greensboro, NC 27401","Email Address":null,"Phone Number":"(336) 763-0814","Hours":null,"Link":"http:\/\/mustardseedclinic.org\/","Unnamed: 11":null,"positions":[36.0720229,-79.757927]},{"#":null,"Name":"Mental Health Association in Greensboro","FIled by":"Jessica","Type":"Mental health","County":"Guilford","Coordinates":"36.0828073, -79.82298809999998","Address":"700 Walter Reed Dr., Greensboro, NC 27403","Email Address":"donna@mhag.org","Phone Number":"(336) 273-7273","Hours":null,"Link":"https:\/\/www.mhag.org\/","Unnamed: 11":null,"positions":[36.0828073,-79.8229881]},{"#":null,"Name":"Greensboro Women's Health Care","FIled by":"Jessica","Type":"Medical, women's health","County":"Guilford","Coordinates":"36.0931509, -79.8205044","Address":"719 Green Valley Road, Suite 101, Greensboro, NC 27408","Email Address":null,"Phone Number":"336-370-0277","Hours":"Monday-Friday 8:00 AM - 5:00 PM","Link":"https:\/\/www.conehealthmedicalgroup.com\/chmg\/practice-locations\/profile\/greensboro-womens-health-care\/","Unnamed: 11":null,"positions":[36.0931509,-79.8205044]},{"#":null,"Name":"General Medical Clinic","FIled by":"Jessica","Type":"Medical","County":"Guilford","Coordinates":"36.0262839, -79.87541269999997","Address":"3710 High Point Road, Greensboro, NC 27407","Email Address":null,"Phone Number":"336-299-6242","Hours":"Monday-Thursday: 8am-5pm, Friday: 8am-1pm","Link":"http:\/\/www.generalmedicalclinics.com\/","Unnamed: 11":null,"positions":[36.0262839,-79.8754127]},{"#":null,"Name":"YWCA Greensboro","FIled by":"Jessica","Type":"Shelter, Women's empowerment","County":"Guilford","Coordinates":"36.0876487, -79.76167299999997","Address":"1807 East Wendover Ave., Greensboro NC 27405","Email Address":"familyshelter@ywcagsonc.org","Phone Number":"336-333-0175","Hours":"Monday-Friday: 9AM\u20135PM","Link":"https:\/\/ywcagsonc.org\/","Unnamed: 11":null,"positions":[36.0876487,-79.761673]},{"#":null,"Name":"Triad Counseling and Clinical Services, LLC","FIled by":"Jessica","Type":"Mental health, counseling","County":"Guilford","Coordinates":"36.1130924, -79.90639199999998","Address":"5587 D\u00a0Garden Village Way, Greensboro, NC 27410","Email Address":null,"Phone Number":"3362728090","Hours":null,"Link":null,"Unnamed: 11":null,"positions":[36.1130924,-79.906392]},{"#":null,"Name":"Guilford Green Foundation","FIled by":"Jessica","Type":"LGBTQ","County":"Guilford","Coordinates":"36.0864033, -79.80397740000001","Address":"1205 W. Bessemer Ave., Suite 226, Greensboro, NC 27408","Email Address":null,"Phone Number":"336-790-8419","Hours":null,"Link":"https:\/\/guilfordgreenfoundation.org\/","Unnamed: 11":null,"positions":[36.0864033,-79.8039774]},{"#":null,"Name":"Rural Health Group, Inc","FIled by":"Jessica","Type":"Medical","County":"Halifax","Coordinates":"36.4646059, -77.65390719999999","Address":"500 Jackson Street, PO Box 640, Roanoke Rapids, NC 27870","Email Address":null,"Phone Number":"252-536-5440","Hours":null,"Link":"http:\/\/rhgnc.org\/","Unnamed: 11":null,"positions":[36.4646059,-77.6539072]},{"#":null,"Name":"Roanoke Clinic","FIled by":"Jessica","Type":"Medical","County":"Halifax","Coordinates":"36.4298439, -77.64121799999998","Address":"1385 Medical Center Drive, Roanoke Rapids, NC 27870","Email Address":null,"Phone Number":"(252) 537-9176","Hours":"Monday through Friday, 7 a.m.-5 p.m.","Link":null,"Unnamed: 11":null,"positions":[36.4298439,-77.641218]},{"#":null,"Name":"E Squared Community Services","FIled by":"Jessica","Type":"Mental health","County":"Halifax","Coordinates":"36.3993906, -78.15474819999997","Address":"124 N Main St, Warrenton, NC 27589","Email Address":null,"Phone Number":"(252) 257-2075","Hours":null,"Link":null,"Unnamed: 11":null,"positions":[36.3993906,-78.1547482]},{"#":null,"Name":"Lake Area Health Care","FIled by":"Jessica","Type":"Mental health","County":"Halifax","Coordinates":"36.4083054, -78.15479499999998","Address":"N Main St, Warrenton, NC 27589","Email Address":null,"Phone Number":"252-879-0091","Hours":"Monday-Friday: 8 a.m.-5 p.m","Link":null,"Unnamed: 11":null,"positions":[36.4083054,-78.154795]},{"#":null,"Name":"Halifax Works Healthcare Express","FIled by":"Jessica","Type":"Medical","County":"Halifax","Coordinates":"36.4355111, -77.64524519999998","Address":"4942, 210 Smith Church Rd, Roanoke Rapids, NC 27870","Email Address":null,"Phone Number":"(252) 535-8463","Hours":"Monday-Saturday: 7am-7pm","Link":"https:\/\/halifaxregional.org\/locations\/halifax-works-healthcare-express\/","Unnamed: 11":null,"positions":[36.4355111,-77.6452452]},{"#":null,"Name":"Halifax County Department of Social Services","FIled by":"Jessica","Type":"Shelter","County":"Halifax","Coordinates":"36.37148800000001, -77.59112979999998","Address":"4421 US-301, Halifax, NC 27839","Email Address":null,"Phone Number":"(252) 536-2511","Hours":"Monday-Friday: 8:30AM\u20135PM","Link":"halifaxnc.com","Unnamed: 11":null,"positions":[36.371488,-77.5911298]},{"#":null,"Name":"Halifax-Northampton Habitat for Humanity","FIled by":"Jessica","Type":"Shelter","County":"Halifax","Coordinates":"36.4257584, -77.66975400000001","Address":"1152 Highway 48, Roanoke Rapids, NC 27870","Email Address":null,"Phone Number":"(252) 537-2556","Hours":"Tuesday, Thursday: 9am-1pm","Link":"habitat-hn.org","Unnamed: 11":null,"positions":[36.4257584,-77.669754]},{"#":null,"Name":"First Choice Community Health Centers","FIled by":"Jessica","Type":"Medical","County":"Harnett","Coordinates":"35.295346, -79.07950189999997","Address":"985 Autumn Fern Trail #40, Lillington, NC 27546","Email Address":"corporate@firstchoicechc.org","Phone Number":"(919) 499-9422","Hours":"Monday-Wednesday, Friday: 8:30am - 5:00pm; Thursday: 11:30am-8pm","Link":"firstchoicechc.org","Unnamed: 11":null,"positions":[35.295346,-79.0795019]},{"#":null,"Name":"Lillington Medical Services","FIled by":"Jessica","Type":"Medical","County":"Harnett","Coordinates":"35.402166, -78.81990339999999","Address":"716 N. 10th Street, Lillington, NC 27546","Email Address":null,"Phone Number":"(910) 814-1212","Hours":"Monday-Thursday: 7:30AM\u20134:30PM, Friday: 7:30AM\u201311:30AM","Link":null,"Unnamed: 11":null,"positions":[35.402166,-78.8199034]},{"#":null,"Name":"Edgewater Medical Center","FIled by":"Jessica","Type":"Medical","County":"Harnett","Coordinates":"35.4046208, -78.81538999999998","Address":"100 S 10th St, Lillington, NC 27546","Email Address":null,"Phone Number":"(910) 893-4111","Hours":"Monday-Friday: 7:30AM\u20135PM, Saturday: 9AM-5PM, Sunday: 12-5PM","Link":null,"Unnamed: 11":null,"positions":[35.4046208,-78.81539]},{"#":null,"Name":"Dunn Medical Services","FIled by":"Jessica","Type":"Medical","County":"Harnett","Coordinates":"35.3071781, -78.63256960000001","Address":"803 Tilghman Dr #100, Dunn, NC 28334","Email Address":null,"Phone Number":"(910) 892-1091","Hours":"Monday-Thursday: 7:30AM\u20134:30PM, Friday: 7:30AM\u20131PM","Link":"myharnetthealth.org","Unnamed: 11":null,"positions":[35.3071781,-78.6325696]},{"#":null,"Name":"Harnett Counseling Services","FIled by":"Jessica","Type":"Mental health, counseling","County":"Harnett","Coordinates":"35.414103, -78.80647299999998","Address":"1186 N Main St, Lillington, NC 27546","Email Address":"infoharnettcounseling@yahoo.com","Phone Number":"(910) 814-0909","Hours":null,"Link":"http:\/\/www.harnettcounseling.com\/","Unnamed: 11":null,"positions":[35.414103,-78.806473]},{"#":null,"Name":"Peace of Mind, Inc.","FIled by":"Jessica","Type":"Mental health, counseling","County":"Harnett","Coordinates":"35.4018222, -78.82868610000003","Address":"817 W Front St, Lillington, NC 27546","Email Address":null,"Phone Number":"(910) 814-2197","Hours":"Monday, Friday: 9AM\u20135PM, Tuesday-Thursday: 9AM\u20137PM","Link":"peace-of-mind-inc.com","Unnamed: 11":null,"positions":[35.4018222,-78.8286861]},{"#":null,"Name":"TriCare Counseling & Consulting","FIled by":"Jessica","Type":"Mental health, counseling","County":"Harnett","Coordinates":"35.3085673, -78.6319234","Address":"731 Tilghman Dr, Dunn, NC 28334","Email Address":null,"Phone Number":"(910) 249-4219","Hours":"Monday-Friday: 8AM\u20134:30PM","Link":"http:\/\/www.tricarecounseling.com\/","Unnamed: 11":null,"positions":[35.3085673,-78.6319234]},{"#":null,"Name":"Hope For Life Transitional Housing & Shelter Inc","FIled by":"Jessica","Type":"Shelter","County":"Harnett","Coordinates":"35.3150408, -78.61097889999996","Address":"603 North McKay AvenueDunn, NC 28334","Email Address":null,"Phone Number":"(910) 375-9128","Hours":"Monday-Friday: 8AM\u20135PM","Link":"https:\/\/hope-for-life-transitional-housing-shelter-inc.business.site\/","Unnamed: 11":null,"positions":[35.3150408,-78.6109789]},{"#":null,"Name":"Haywood Regional Medical Center","FIled by":"Jessica","Type":"Medical","County":"Haywood","Coordinates":"35.5259613, -82.94264770000001","Address":"262 Leroy George Dr, Clyde, NC 28721","Email Address":null,"Phone Number":"(828) 456-7311","Hours":"Open 24\/7","Link":"https:\/\/www.myhaywoodregional.com\/","Unnamed: 11":null,"positions":[35.5259613,-82.9426477]},{"#":null,"Name":"Haywood Women's Medical Center","FIled by":"Jessica","Type":"Medical, women's health","County":"Haywood","Coordinates":"35.5266323, -82.94095479999999","Address":"35 Facility Dr, Clyde, NC 28721","Email Address":null,"Phone Number":"(828) 452-5042","Hours":"Monday-Thursday: 8:30AM\u20135PM, Friday: 8:30AM\u20133PM","Link":"haywoodwomenscare.com","Unnamed: 11":null,"positions":[35.5266323,-82.9409548]},{"#":null,"Name":"Blue Ridge Health - Haywood","FIled by":"Jessica","Type":"Medical","County":"Haywood","Coordinates":"35.5260471, -82.94986169999999","Address":"490 Hospital Dr, Clyde, NC 28721","Email Address":"info@BRCHS.com","Phone Number":"(828) 246-6372","Hours":"Monday-Thursday: 8AM\u20135PM, Friday: 8AM\u20131PM","Link":"https:\/\/www.brchs.com\/","Unnamed: 11":null,"positions":[35.5260471,-82.9498617]},{"#":null,"Name":"Appalachian Community Services","FIled by":"Jessica","Type":"Medical, mental health","County":"Haywood","Coordinates":"35.512316, -82.9899069","Address":"1482 Russ Ave, Waynesville, NC 28786","Email Address":null,"Phone Number":"(828) 452-1395","Hours":null,"Link":"acswnc.com","Unnamed: 11":null,"positions":[35.512316,-82.9899069]},{"#":null,"Name":"Haywood County Psychological","FIled by":"Jessica","Type":"Mental health, counseling","County":"Haywood","Coordinates":"35.4874079, -82.99093549999998","Address":"669 S Haywood St, Waynesville, NC 28786","Email Address":null,"Phone Number":"(828) 456-2997","Hours":null,"Link":null,"Unnamed: 11":null,"positions":[35.4874079,-82.9909355]},{"#":null,"Name":"Spring Counseling","FIled by":"Jessica","Type":"Mental health, counseling","County":"Haywood","Coordinates":"35.528604, -82.97515099999998","Address":"545 N Lakeshore Dr, Lake Junaluska, NC 28745","Email Address":null,"Phone Number":"(828) 564-1282","Hours":"Monday-Friday: 8AM\u20136PM","Link":"spring-counseling.com","Unnamed: 11":null,"positions":[35.528604,-82.975151]},{"#":null,"Name":"Haywood Pathways Center","FIled by":"Jessica","Type":"Shelter","County":"Haywood","Coordinates":"35.4722773, -83.00423089999998","Address":"179 Hemlock Street Waynesville NC 28786","Email Address":null,"Phone Number":"828-246-0332","Hours":"Mon - Fri: 9:00 - 5:00","Link":"https:\/\/www.haywoodpathwayscenter.org\/","Unnamed: 11":null,"positions":[35.4722773,-83.0042309]},{"#":null,"Name":"REACH of Haywood County, Inc.","FIled by":"Jessica","Type":"Shelter","County":"Haywood","Coordinates":"35.49529080000001, -82.98153030000003","Address":"627 N Main St, Waynesville, NC 28786","Email Address":null,"Phone Number":"(828) 456-7898","Hours":"Mon-Thur: 9AM\u20135PM, Fri: 9AM\u20134PM","Link":"reachofhaywood.org","Unnamed: 11":null,"positions":[35.4952908,-82.9815303]},{"#":null,"Name":"Free Clinics","FIled by":"Jessica","Type":"Medical","County":"Henderson","Coordinates":"35.2928648, -82.42825749999997","Address":"841 Case St, Hendersonville, NC 28792","Email Address":null,"Phone Number":"(828) 697-8422","Hours":"Monday, Wednesday, Thursday, Friday: 9:00am \u2013 5:00pm, Tuesday: 11:30am \u2013 7:30pm","Link":"https:\/\/www.thefreeclinics.org\/","Unnamed: 11":null,"positions":[35.2928648,-82.4282575]},{"#":null,"Name":"Blue Ridge Health - Chimney Rock Road","FIled by":"Jessica","Type":"Medical","County":"Henderson","Coordinates":"35.3497867, -82.43117849999999","Address":"2579 Chimney Rock Rd, Hendersonville, NC 28792","Email Address":null,"Phone Number":"(828) 692-4289","Hours":"Mon-Thur: 8AM\u20138PM, Fri: 8AM\u20135PM","Link":"brchs.com","Unnamed: 11":null,"positions":[35.3497867,-82.4311785]},{"#":null,"Name":"Mountain Counseling Associates, LLC","FIled by":"Jessica","Type":"Mental health, counseling","County":"Henderson","Coordinates":"35.3157681, -82.4535692","Address":"110 Williams St, Hendersonville, NC 28792","Email Address":null,"Phone Number":"(828) 692-7300","Hours":"Mon-Thur: 9AM\u20135PM","Link":"mountaincounseling.com","Unnamed: 11":null,"positions":[35.3157681,-82.4535692]},{"#":null,"Name":"Highland Medical Associates ","FIled by":"Jessica","Type":"Medical","County":"Henderson","Coordinates":"35.3348889, -82.44849069999998","Address":"165 Coolridge St, Hendersonville, NC 28792","Email Address":null,"Phone Number":"(828) 694-3939","Hours":"Mon-Fri: 8AM\u20135PM","Link":null,"Unnamed: 11":null,"positions":[35.3348889,-82.4484907]},{"#":null,"Name":"Vista Family Health","FIled by":"Jessica","Type":"Medical","County":"Henderson","Coordinates":"35.4446797, -82.50793569999996","Address":"2695 Hendersonville Rd #204, Arden, NC 28704","Email Address":null,"Phone Number":"(828) 687-8647","Hours":"Mon-Fri: 7:30AM\u20135PM","Link":"missionhealth.org","Unnamed: 11":null,"positions":[35.4446797,-82.5079357]},{"#":null,"Name":"Full Circle Community Wellness","FIled by":"Jessica","Type":"Mental health, counseling","County":"Henderson","Coordinates":"35.3217165, -82.45904940000003","Address":"322 8th Ave E, Hendersonville, NC 28793","Email Address":null,"Phone Number":"(828) 222-0401","Hours":"Mon-Fri: 9AM\u20135PM","Link":"fullcirclewnc.org","Unnamed: 11":null,"positions":[35.3217165,-82.4590494]},{"#":null,"Name":"Homes For Youth","FIled by":"Jessica","Type":"Shelter, youth","County":"Henderson","Coordinates":"35.26484800000001, -82.493337","Address":"32 Connell Dr, Hendersonville, NC 28739","Email Address":null,"Phone Number":"(828) 551-0537","Hours":null,"Link":"https:\/\/www.homesforyouth.org\/","Unnamed: 11":null,"positions":[35.264848,-82.493337]},{"#":null,"Name":"Roanoke Chowan Community Health Center","FIled by":"Jessica","Type":"Medical","County":"Hertford","Coordinates":"36.2975743, -76.9922525","Address":"120 Health Center Dr, Ahoskie, NC 27910","Email Address":null,"Phone Number":"(252) 209-0237","Hours":"Mon.: 7:00 am \u2013 7:00 pm (evening clinic), Tues & Wed 7:30 am \u2013 5:00 pm, Thurs.: 7:00 am \u2013 7:00 pm (evening clinic), Fri.: 7:00 am \u2013 4:00 pm, Sat: 8:00 am - 12:00 noon","Link":"rcchc.org","Unnamed: 11":null,"positions":[36.2975743,-76.9922525]},{"#":null,"Name":"Vidant Women's Care - Ahoskie","FIled by":"Jessica","Type":"Medical, women's health","County":"Hertford","Coordinates":"36.2829409, -76.99710970000001","Address":"700 S Academy St, Ahoskie, NC 27910","Email Address":null,"Phone Number":"(252) 209-3614","Hours":"Mon-Thur: 8AM\u20135PM, Fri: 8AM\u20134PM","Link":"vidanthealth.com","Unnamed: 11":null,"positions":[36.2829409,-76.9971097]},{"#":null,"Name":"Murfreesboro Primary Care","FIled by":"Jessica","Type":"Medical","County":"Hertford","Coordinates":"36.4395525, -77.08848560000001","Address":"305 Beachwood Blvd, Murfreesboro, NC 27855","Email Address":null,"Phone Number":"(252) 398-3323","Hours":"Mon-Thur: 7:30AM\u20135PM, Fri: 7:30AM\u20134PM","Link":"https:\/\/www.rcchc.org\/","Unnamed: 11":null,"positions":[36.4395525,-77.0884856]},{"#":null,"Name":"Vidant Behavioral Health - Ahoskie","FIled by":"Jessica","Type":"Mental health, counseling","County":"Hertford","Coordinates":"36.2975006, -76.99225919999998","Address":"113 B Hertford County High School Rd, Ahoskie, NC 27910","Email Address":null,"Phone Number":"(252) 209-8161","Hours":"Mon-Thur: 8AM\u20135PM, Fri: 8AM\u20134PM","Link":null,"Unnamed: 11":null,"positions":[36.2975006,-76.9922592]},{"#":null,"Name":"Northside Behavioral Health Services","FIled by":"Jessica","Type":"Mental health, counseling","County":"Hertford","Coordinates":"36.296907, -76.99003299999998","Address":"111 Hertford County High School Rd, Ahoskie, NC 27910","Email Address":null,"Phone Number":"(252) 209-3056","Hours":null,"Link":"vidanthealth.com","Unnamed: 11":null,"positions":[36.296907,-76.990033]},{"#":null,"Name":"Safe Space","FIled by":"Jessica","Type":"Shelter, domestic abuse treatment","County":"Hertford","Coordinates":"36.2966217, -76.98361269999998","Address":"123 Loftin Ln S, Ahoskie, NC 27910","Email Address":null,"Phone Number":"(252) 332-1933","Hours":null,"Link":"https:\/\/www.roanokechowansafe.com\/","Unnamed: 11":null,"positions":[36.2966217,-76.9836127]},{"#":94.0,"Name":"Alliance Behavioral Healthcare","FIled by":"Mubeen","Type":"Mental health","County":"Johnston","Coordinates":"35.5142699,-78.3365443","Address":"521 North Brightleaf Boulevard Smithfield, NC 27577","Email Address":null,"Phone Number":"(800) 510-9132","Hours":"24\/7","Link":"https:\/\/www.alliancebhc.org\/consumers-families\/common-behavioral-illnesses\/","Unnamed: 11":null,"positions":[35.5142699,-78.3365443]},{"#":null,"Name":"Toe River Health Disrict","FIled by":"Mubeen","Type":"Mental health, food, shelter","County":"Mitchell","Coordinates":"35.9670373,-82.116058","Address":"130 Forest Srv Rd A, Bakersville, NC 28705","Email Address":"mitchellhd@toeriverhealth.org","Phone Number":"(828) 688-2371","Hours":"-","Link":"http:\/\/www.toeriverhealth.org","Unnamed: 11":null,"positions":[35.9670373,-82.116058]},{"#":null,"Name":"Bakersville Community Medical Clinic","FIled by":"Nish","Type":"Medical","County":"Mitchell","Coordinates":"36.016180, -82.157042","Address":"86 North Mitchell Avenue, Bakersville, NC 28705","Email Address":"clinic@bakersville.com","Phone Number":"(828)688-2104","Hours":"Monday-Friday: 8AM\u20135PM","Link":"https:\/\/mchp.care\/index.html","Unnamed: 11":null,"positions":[36.01618,-82.157042]},{"#":null,"Name":"Mitchell County Health Department","FIled by":"Nish","Type":"Medical","County":"Mitchell","Coordinates":"35.967137, -82.113853","Address":"130 Forest Service Drive Suite A\/ Bakersville, NC 28705","Email Address":"lkinnane@trhd.dst.nc.us","Phone Number":"(828) 688-2371","Hours":"Monday-Friday: 8AM\u20135PM","Link":null,"Unnamed: 11":null,"positions":[35.967137,-82.113853]},{"#":null,"Name":"Blue Ridge Regional Hospital","FIled by":"Nish","Type":"Medical","County":"Mitchell","Coordinates":"35.911169, -82.062670","Address":"125 Hospital Drive, Spruce Pine, NC 28777","Email Address":null,"Phone Number":"(877) 777-8230","Hours":"24 Hour","Link":"www.blueridgehospital.org","Unnamed: 11":null,"positions":[35.911169,-82.06267]},{"#":null,"Name":"Western Highlands Network","FIled by":"Nish","Type":"Mental Health","County":"Mitchell","Coordinates":"35.915800, -82.069306","Address":"205 Locust Avenue\/ Spruce Pine, NC 28777","Email Address":null,"Phone Number":"(828)765-9380","Hours":"Monday-Friday 8AM-5PM","Link":null,"Unnamed: 11":null,"positions":[35.9158,-82.069306]},{"#":null,"Name":"W.A.M.Y. Community Action, Inc.","FIled by":"Nish","Type":"Food, Health, Shelter","County":"Mitchell","Coordinates":"35.915931, -82.069155","Address":"29 Crystal Street\/ Spruce Pine, NC 28777","Email Address":null,"Phone Number":"(828)766-9150","Hours":"Monday-Friday 8AM-5PM","Link":"www.wamycommunityaction.org","Unnamed: 11":null,"positions":[35.915931,-82.069155]},{"#":null,"Name":"Mitchell County Department of Social Services","FIled by":"Nish","Type":"Food, Health, Shelter","County":"Mitchell","Coordinates":"36.017063, -82.162420","Address":"347 Long View Drive\/ Bakersville, NC 28705","Email Address":null,"Phone Number":"(828) 688-2175","Hours":"24 Hour","Link":"https:\/\/www.ncdhhs.gov\/divisions\/dss","Unnamed: 11":null,"positions":[36.017063,-82.16242]},{"#":null,"Name":"Shepherd\u2019s Staff Secondhand Store and Food Pantry","FIled by":"Nish","Type":"Food Pantry","County":"Mitchell","Coordinates":"35.907022, -82.071753","Address":"695 Summit Avenue Spruce Pine, NC 28777","Email Address":null,"Phone Number":"(828) 765-2224","Hours":"Wednesday, 1:00pm - 4:00pm","Link":"https:\/\/www.mannafoodbank.org\/where-to-get-help\/food-finder\/","Unnamed: 11":null,"positions":[35.907022,-82.071753]},{"#":null,"Name":"Mitchell County WIC Program","FIled by":"Nish","Type":"Food Pantry","County":"Mitchell","Coordinates":"35.966974, -82.113856","Address":"130 Forest Service Dr. Suite A Bakersville, NC 28705","Email Address":null,"Phone Number":"828 688-2371","Hours":"Monday-Friday 8AM-5PM","Link":"http:\/\/www.toeriverhealth.org\/Mitchell.asp","Unnamed: 11":null,"positions":[35.966974,-82.113856]},{"#":null,"Name":"Mitchell County SafePlace","FIled by":"Nish","Type":"Domestic Violence Shelter","County":"Mitchell","Coordinates":"35.922709, -82.057701","Address":"PO Box 544 Spruce Pine NC 28777","Email Address":null,"Phone Number":"(828) 765-4044","Hours":"24 hours","Link":"https:\/\/mitchellcountysafeplace.org\/contact","Unnamed: 11":null,"positions":[35.922709,-82.057701]},{"#":null,"Name":"Mt. Zion UCC\/Rockingham","FIled by":"Praj","Type":"Food Bank","County":"Richmond","Coordinates":"35.002702, -79.688371","Address":"986 Ledbetter Road Rockingham, NC 28379","Email Address":null,"Phone Number":"910-997-3739","Hours":"every other month, 3rd Friday, 4pm","Link":"https:\/\/www.foodpantries.org\/li\/mt._zion_uccrockingham_28379","Unnamed: 11":null,"positions":[35.002702,-79.688371]},{"#":null,"Name":"Pee Dee pregnancy resource center","FIled by":"Praj","Type":"Medical","County":"Richmond","Coordinates":"-21.316338, 165.715489","Address":"3603, 202 S Lawrence St, Rockingham, NC 28379","Email Address":null,"Phone Number":"(910) 997-3040","Hours":"Wed-10AM\u20132PM\r\nTue,Thu-10AM\u20135PM","Link":"http:\/\/pregnantwhatnow.org\/","Unnamed: 11":null,"positions":[-21.316338,165.715489]},{"#":null,"Name":"Asha B\u2019s Closet","FIled by":"Praj","Type":"Mental Health","County":"Richmond","Coordinates":"34.922552, -79.75009","Address":"1219 Rockingham Rd #9, Rockingham, NC 28379","Email Address":null,"Phone Number":"(910) 434-8178","Hours":null,"Link":"http:\/\/www.ashabscloset.com\/","Unnamed: 11":null,"positions":[34.922552,-79.75009]},{"#":null,"Name":"Richmond County Health Department","FIled by":"Praj","Type":"Medical","County":"Richmond","Coordinates":"34.938856, -79.777768","Address":"127 Caroline St, Rockingham, NC 28379","Email Address":null,"Phone Number":"(910) 997-8300","Hours":"Monday: 8:00am - 5:00pm","Link":"https:\/\/www.richmondnc.com\/202\/Division-of-Public-Health","Unnamed: 11":null,"positions":[34.938856,-79.777768]},{"#":null,"Name":"Richmond County Department of Social Services","FIled by":"Praj","Type":"Affordable Housing","County":"Richmond","Coordinates":"34.939414, -79.777553","Address":"125 Caroline Street, Rockingham NC 28380\n ","Email Address":" ","Phone Number":"910-997-8480\n","Hours":"24\/7","Link":"https:\/\/www.ncdhhs.gov\/divisions\/dss\/local-county-social-services-offices","Unnamed: 11":null,"positions":[34.939414,-79.777553]},{"#":null,"Name":"New Horizons","FIled by":"Praj","Type":"Domestic Abuse","County":"Richmond","Coordinates":"34.928613, -79.758957","Address":"801 East Broad Avenue Suite 15. Rockingham, NC 28379","Email Address":"Help@newhorizonsagency.com","Phone Number":"910-997-4840","Hours":"24\/7","Link":"http:\/\/www.newhorizonsagency.com\/","Unnamed: 11":null,"positions":[34.928613,-79.758957]},{"#":null,"Name":"YVEDDI Family Violence and Sexual Assault","FIled by":"Mubeen","Type":"Domestic Violence, Sexual assault, LGBT","County":"Surry","Coordinates":"36.2421994,-80.71177410000001","Address":"124 West Kapp St. Dobson, NC 27017","Email Address":"yadkindv@yveddi.com","Phone Number":"(336) 356-2014","Hours":"24\/7","Link":"https:\/\/www.yveddi.com\/domestic-violence-programs\/","Unnamed: 11":null,"positions":[36.2421994,-80.7117741]},{"#":null,"Name":"Inner Banks Hotline","FIled by":"Mubeen","Type":"Domestic Violence, sexual assault","County":"Tyrrell","Coordinates":"35.9190661,-76.245874","Address":"507 US Hwy 64E Columbia, NC 27925","Email Address":"spencer@ibxhotline.org","Phone Number":"1-877-429-5526","Hours":"24\/7","Link":"https:\/\/ibxhotline.org","Unnamed: 11":null,"positions":[35.9190661,-76.245874]},{"#":null,"Name":"Turning Point","FIled by":"Mubeen","Type":"Domestic Violence, sexual assault","County":"Union","Coordinates":"34.9861741,-80.5507701","Address":"150 Winchester Ave, Monroe, NC 28110","Email Address":"info@turntoday.net","Phone Number":"704-283-7233","Hours":"24\/7","Link":"https:\/\/turningpointnc.org","Unnamed: 11":null,"positions":[34.9861741,-80.5507701]},{"#":99.0,"Name":"United Way","FIled by":"Mubeen","Type":"Food, shelter","County":"Vance","Coordinates":"36.3229253,-78.410647","Address":"715 S Garnett St PO BOX 1352 Henderson, NC 27536","Email Address":"unitedwayofvance@gmail.com","Phone Number":"(252) 492-8392","Hours":null,"Link":"http:\/\/unitedwayvance.org\/events","Unnamed: 11":null,"positions":[36.3229253,-78.410647]},{"#":9.0,"Name":"InterAct","FIled by":"Mubeen","Type":"Domestic violence, sexual assault","County":"Wake county","Coordinates":"35.796608,-78.659562","Address":"1012 Oberlin Road Raleigh, NC 27605","Email Address":"info@interactofwake.org","Phone Number":"919-828-7740","Hours":"24\/7","Link":"http:\/\/interactofwake.org","Unnamed: 11":null,"positions":[35.796608,-78.659562]},{"#":89.0,"Name":"A Place Called Hope Pantry (H.O.P.E.\u2019S Pantry)","FIled by":"Mubeen","Type":"Food Pantry","County":"Wake county","Coordinates":"35.7244313,-78.661964","Address":"1809 Garner Station BlvdRaleigh, NC 27603","Email Address":"apchchurch@gmail.com","Phone Number":"919-662-8019","Hours":null,"Link":"https:\/\/www.apchchurch.com","Unnamed: 11":null,"positions":[35.7244313,-78.661964]},{"#":90.0,"Name":"ALLIANCE OF AIDS SERVICES CAROLINA","FIled by":"Mubeen","Type":"Healthcare, food","County":"Wake county","Coordinates":"35.8034639,-78.6247887","Address":"1637 Old Louisburg Road Raleigh, NC 27604","Email Address":"info@aas-c.org","Phone Number":"(919) 834-2437","Hours":"Mon-Fri 9am 5pm","Link":null,"Unnamed: 11":null,"positions":[35.8034639,-78.6247887]},{"#":91.0,"Name":"Alliance Behavioral Healthcare","FIled by":"Mubeen","Type":"Mental health","County":"Wake county","Coordinates":"35.8498945,-78.6159109","Address":"5000 Falls of Neuse Road Raleigh, NC 27609","Email Address":null,"Phone Number":"(800) 510-9132","Hours":"24\/7","Link":"https:\/\/www.alliancebhc.org\/consumers-families\/common-behavioral-illnesses\/","Unnamed: 11":null,"positions":[35.8498945,-78.6159109]},{"#":95.0,"Name":"South Wilmington Street Center","FIled by":"Mubeen","Type":"Shelter","County":"Wake county","Coordinates":"35.7622154,-78.642428","Address":"1420 S. Wilmington St. Raleigh","Email Address":null,"Phone Number":"919-857-9428","Hours":null,"Link":"http:\/\/www.wakegov.com\/humanservices\/locations\/swsc\/Pages\/default.aspx","Unnamed: 11":null,"positions":[35.7622154,-78.642428]},{"#":96.0,"Name":"Cornerstone Center","FIled by":"Mubeen","Type":"Shelter, mental health","County":"Wake county","Coordinates":"35.7787674,-78.6546206","Address":"220 Snow Ave. (Corner of W. Hargett Street & Snow Avenue)Raleigh, NC 27603","Email Address":null,"Phone Number":"919-508-0777","Hours":"Monday, Tuesday, Thursday and Friday: 8:30 a.m.\u2013noon and 1\u20135 p.m.Wednesday: 1\u20135 p.m.","Link":"http:\/\/www.wakegov.com\/humanservices\/housing\/services\/Pages\/cornerstone.aspx","Unnamed: 11":null,"positions":[35.7787674,-78.6546206]},{"#":97.0,"Name":"LGBT Center of Raleigh","FIled by":"Mubeen","Type":"LGBT","County":"Wake county","Coordinates":"35.7760467,-78.6476354","Address":"324 South Harrington Street - Raleigh NC 27603","Email Address":null,"Phone Number":"919-231-4525","Hours":"24\/7","Link":"https:\/\/www.lgbtcenterofraleigh.com\/programs\/youth-programs.html","Unnamed: 11":null,"positions":[35.7760467,-78.6476354]},{"#":8.0,"Name":"Infinite Possibilities, Inc.","FIled by":"Mubeen","Type":"Domestic Violence, sexual assault","County":"Warren","Coordinates":"36.325807, -78.405238","Address":"314 S Garnett St, Henderson, NC 27536","Email Address":"-","Phone Number":"252-425-2492","Hours":"24\/7","Link":"http:\/\/www.infinitepossibilitiesinc.com\/cgi-sys\/suspendedpage.cgi","Unnamed: 11":"** Website does not work","positions":[36.325807,-78.405238]},{"#":98.0,"Name":"United Way","FIled by":"Mubeen","Type":"Food, shelter","County":"Warren","Coordinates":"36.3229253,-78.410647","Address":"715 S Garnett St PO BOX 1352 Henderson, NC 27536","Email Address":"unitedwayofvance@gmail.com","Phone Number":"(252) 492-8392","Hours":null,"Link":"http:\/\/unitedwayvance.org\/events","Unnamed: 11":null,"positions":[36.3229253,-78.410647]},{"#":7.0,"Name":"REAL Crisis Intervention","FIled by":"Mubeen","Type":"Sexual assault, suicide, mental health","County":"Washington","Coordinates":"35.603986, -77.367799","Address":"1011 Anderson St. Greenville, NC, 27858","Email Address":" realcrisis@embarqmail.com","Phone Number":"252-758-4357","Hours":"24\/7","Link":"http:\/\/realcrisis.org","Unnamed: 11":null,"positions":[35.603986,-77.367799]},{"#":6.0,"Name":"Opposing Abuse with Service, Information and Shelter","FIled by":"Mubeen","Type":"Domestic Violence, sexual assault","County":"Watauga","Coordinates":"36.198813, -81.653749","Address":"225 Birch St. Boone, NC 28607","Email Address":"outreach@oasisinc.org","Phone Number":"(828) 262-5035","Hours":"24\/7","Link":"http:\/\/www.oasisinc.org\/resources\/","Unnamed: 11":null,"positions":[36.198813,-81.653749]},{"#":null,"Name":"Hunger and Health Coalition","FIled by":"Mubeen","Type":"Food","County":"Watauga","Coordinates":"36.2145752,-81.6435032","Address":"141 Health Center Drive, Suite C Boone, NC 28607","Email Address":"resources@hungerandhealthcoalition.com","Phone Number":"(828) 262-1628","Hours":"M-F, 8:30a-4:30p","Link":"https:\/\/www.hungerandhealthcoalition.com","Unnamed: 11":null,"positions":[36.2145752,-81.6435032]},{"#":null,"Name":"Hospitality House","FIled by":"Mubeen","Type":"Food, Shelter","County":"Watauga","Coordinates":"36.2140203,-81.643377","Address":"338 Brook Hollow Road, Boone NC 28607 828.264.1237","Email Address":"info@hosphouse.org","Phone Number":"(828) 264-1237","Hours":null,"Link":"https:\/\/www.hosphouse.org\/contact","Unnamed: 11":null,"positions":[36.2140203,-81.643377]},{"#":5.0,"Name":"Wayne Uplift Domestic Violence","FIled by":"Mubeen","Type":"Shelter, sexual assault","County":"Wayne","Coordinates":"35.388940, -78.007530","Address":"719 Ash Street, Goldsboro, NC","Email Address":"-","Phone Number":"919-736-1313","Hours":"24\/7","Link":"https:\/\/unitedwayne.galaxydigital.com\/agency\/detail\/?agency_id=8004","Unnamed: 11":null,"positions":[35.38894,-78.00753]},{"#":null,"Name":"Community Soup Kitchen Of Goldsboro Inc","FIled by":"Mubeen","Type":"Food","County":"Wayne","Coordinates":"35.3872645,-77.9989614","Address":"112 W Oak St, Goldsboro, NC 27530","Email Address":null,"Phone Number":"(919) 731-3939","Hours":"Tuesday 8AM\u20131:30PM Wednesday 8AM\u20131:30PM Thursday 8AM\u20131:30PM Friday 8AM\u20131:30PM Saturday   8AM\u20131:30PMSunday  ClosedMonday 8AM\u20131:30P","Link":"https:\/\/www.facebook.com\/Community-Soup-Kitchen-of-GoldsboroInc-153035128079267\/","Unnamed: 11":null,"positions":[35.3872645,-77.9989614]},{"#":4.0,"Name":"SAFE, Inc. Wilkes County, N.C.","FIled by":"Mubeen","Type":"Shelter, sexual assault","County":"Wilkes","Coordinates":"36.135088, -81.177884","Address":"1260 College Ave., Suite 5, Wilkesboro, NC 28697","Email Address":"mgraham@safewilkes.org","Phone Number":"336-838-7233","Hours":"24\/7","Link":"http:\/\/www.safewilkes.org","Unnamed: 11":null,"positions":[36.135088,-81.177884]},{"#":null,"Name":"Samaritan Kitchen of Wilkes","FIled by":"Mubeen","Type":"Food","County":"Wilkes","Coordinates":"36.1491635,-81.2371856","Address":"4187 North Carolina Highway 421, Wilkesboro, North Carolina 28697, United States","Email Address":null,"Phone Number":"336-838-5331","Hours":"Mon9:00 am \u2013 1:00 pm\nTueClosed\nWed9:00 am \u2013 1:00 pm\nThuClosed\nFri9:00 am \u2013 1:00 pm\nSatClosedSunClosed\n","Link":"https:\/\/skwilkes.org","Unnamed: 11":null,"positions":[36.1491635,-81.2371856]},{"#":null,"Name":"Daymark Recovery Services","FIled by":"Mubeen","Type":"Mental health","County":"Wilkes","Coordinates":"36.1549349,-81.1617405","Address":"1400 Willow Lane West Park C61-2 North Wilkesboro, NC 28659","Email Address":null,"Phone Number":"336.667.5151","Hours":"Mon-Fri 8AM-8PM","Link":null,"Unnamed: 11":null,"positions":[36.1549349,-81.1617405]},{"#":null,"Name":"Wilkes Community Health Center","FIled by":"Mubeen","Type":"Health","County":"Wilkes","Coordinates":"36.1441113,-81.1591346","Address":"306 College Street Wilkesboro, NC 28697","Email Address":null,"Phone Number":"336-651-7450","Hours":"Monday - Friday 8:30 a.m. - 5 p.m.","Link":"https:\/\/wilkescounty.net\/Directory.aspx?DID=14","Unnamed: 11":null,"positions":[36.1441113,-81.1591346]},{"#":3.0,"Name":"Wesley Shelter Inc","FIled by":"Mubeen","Type":"Domestic violence, sexual assault, shelther, LGBT","County":"Wilson","Coordinates":"35.726800,-77.907929 ","Address":"106 Vance St E, Wilson, NC 27893","Email Address":"-","Phone Number":"(252) 291-2344","Hours":"24\/7","Link":"http:\/\/www.wesleyshelter.org","Unnamed: 11":null,"positions":[35.7268,-77.907929]},{"#":null,"Name":"New Christian Food Pantry","FIled by":"Mubeen","Type":"Food pantry","County":"Wilson","Coordinates":"35.7237189,-77.9119427","Address":"111 Douglas St S, Wilson, NC 27893","Email Address":"info@wilsonfoodpantry.org","Phone Number":"(252) 265-6165","Hours":"Monday \u2013 Thursday: 9:30AM \u2013 3PM, Friday: 9:30AM \u2013 1PM","Link":"https:\/\/www.wilsonfoodpantry.org","Unnamed: 11":null,"positions":[35.7237189,-77.9119427]},{"#":null,"Name":"Carolina Outreach Family and Systems Treatment","FIled by":"Mubeen","Type":"Mental health, substance abuse","County":"Wilson","Coordinates":"35.8124499,-77.8697171","Address":"608 W. Nash Street Wilson, NC 27893","Email Address":"info@carolinaoutreach.com","Phone Number":"252.291.2200","Hours":"Monday-Friday 8am-5pm","Link":"https:\/\/carolinaoutreach.com\/about\/treatment-model-cofast\/","Unnamed: 11":null,"positions":[35.8124499,-77.8697171]},{"#":2.0,"Name":"YVEDDI Family Violence and Sexual Assault","FIled by":"Mubeen","Type":"Domestic Violence, Sexual assault, LGBT","County":"Yadkin","Coordinates":"36.2421994,-80.71177410000001","Address":"533 N. Carolina Avenue, Highway 601 N Boonville, NC 27011","Email Address":"yadkindv@yveddi.com","Phone Number":"336-367-7251","Hours":"24\/7","Link":"https:\/\/www.yveddi.com\/domestic-violence-programs\/","Unnamed: 11":null,"positions":[36.2421994,-80.7117741]},{"#":null,"Name":"Just Hope","FIled by":"Mubeen","Type":"Food, shelter","County":"Yadkin","Coordinates":"35.9020219,-80.5726423","Address":"643 Wilkesboro St., Mocksville, NC 27028","Email Address":"just_hope_inc@yahoo.com","Phone Number":"(336) 909-4241","Hours":"-","Link":"http:\/\/www.justhopeinc.org\/contact.html","Unnamed: 11":null,"positions":[35.9020219,-80.5726423]},{"#":1.0,"Name":"Family Violence Coalition of Yancey","FIled by":"Mubeen","Type":"Domestic Violence: Shelter, Food, Medical, Mental health, sexual assault","County":"Yancey","Coordinates":"36.0072428,-78.94064320000001","Address":"623 W Main St, Burnsville, NC 28714","Email Address":"fvcinfo@yahoo.com","Phone Number":"828-682-0056","Hours":"-","Link":"http:\/\/fvcyancey.org\/contact\/","Unnamed: 11":null,"positions":[36.0072428,-78.9406432]},{"#":null,"Name":"Toe River Health Disrict","FIled by":"Mubeen","Type":"Mental health, food, shelter","County":"Yancey","Coordinates":"35.9154473,-82.336124","Address":"202 Medical Campus Dr, Burnsville, NC 28714","Email Address":"yanceyhd@toeriverhealth.org","Phone Number":"(828) 682-6118","Hours":"-","Link":"http:\/\/www.toeriverhealth.org","Unnamed: 11":null,"positions":[35.9154473,-82.336124]}]